[{"id":16466,"name":"Richmond St E And Parliament St","district":"Toronto and East York","intersection_id":13465959,"street_1":"Richmond St E","street_2":"Parliament St","geometry":[-79.3640229981536,43.65455901107341]},{"id":16467,"name":"Lake Shore Blvd W And York St","district":"Toronto and East York","intersection_id":13467993,"street_1":"Lake Shore Blvd W","street_2":"York St","geometry":[-79.3808680070637,43.6414600021636]},{"id":16468,"name":"Steeles Ave W And Carpenter Rd / Private Access @ Shopping Centre","district":"North York","intersection_id":13444656,"street_1":"Steeles Ave W","street_2":"Carpenter Rd","geometry":[-79.447588998966,43.7920130014137]},{"id":16469,"name":"Steeles Ave W And Hilda Ave","district":"North York","intersection_id":13444138,"street_1":"Steeles Ave W","street_2":"Hilda Ave","geometry":[-79.4292670008865,43.7960070062936]},{"id":16470,"name":"Albion Rd And Silverstone Dr","district":"Etobicoke York","intersection_id":13451893,"street_1":"Albion Rd","street_2":"Silverstone Dr","geometry":[-79.6000939933117,43.7429520012624]},{"id":16471,"name":"Dixon Rd And Kipling Ave","district":"Etobicoke York","intersection_id":13459576,"street_1":"Dixon Rd","street_2":"Kipling Ave","geometry":[-79.5586490059244,43.6942490044885]},{"id":16472,"name":"Steeles Ave W And Islington Ave","district":"Etobicoke York","intersection_id":13448601,"street_1":"Steeles Ave W","street_2":"Islington Ave","geometry":[-79.5748709931268,43.7643430030644]},{"id":16473,"name":"Sheppard Ave W And Wilson Heights Blvd","district":"North York","intersection_id":13450231,"street_1":"Sheppard Ave W","street_2":"Wilson Heights Blvd","geometry":[-79.4567510019211,43.7516630010107]},{"id":16474,"name":"Bathurst St And Sheppard Ave W","district":"North York","intersection_id":13449607,"street_1":"Bathurst St","street_2":"Sheppard Ave W","geometry":[-79.4384810044369,43.7554580028968]},{"id":16475,"name":"Lawrence Ave W And Marlee Ave / Private Access @ Lawrence Square Access","district":"North York","intersection_id":13455749,"street_1":"Lawrence Ave W","street_2":"Marlee Ave","geometry":[-79.4465200053405,43.7156150035191]},{"id":16476,"name":"Bathurst St And Lawrence Ave W","district":"North York","intersection_id":13455135,"street_1":"Bathurst St","street_2":"Lawrence Ave W","geometry":[-79.4298159904052,43.7192580018008]},{"id":16477,"name":"Bayview Ave And Cummer Ave","district":"North York","intersection_id":13444532,"street_1":"Bayview Ave","street_2":"Cummer Ave","geometry":[-79.3935960040456,43.7922969999153]},{"id":16478,"name":"Finch Ave E And Willowdale Ave","district":"North York","intersection_id":13445882,"street_1":"Finch Ave E","street_2":"Willowdale Ave","geometry":[-79.4071050000532,43.7816250043539]},{"id":16479,"name":"Leslie St And Lawrence Ave E","district":"North York","intersection_id":13452717,"street_1":"Leslie St","street_2":"Lawrence Ave E","geometry":[-79.3559789975746,43.7345350020512]},{"id":16480,"name":"Leslie St And York Mills Rd","district":"North York","intersection_id":13449822,"street_1":"Leslie St","street_2":"York Mills Rd","geometry":[-79.3599699911438,43.7529540024844]},{"id":16481,"name":"Bayview Ave And Truman Rd / Fifeshire Rd","district":"North York","intersection_id":13448765,"street_1":"Bayview Ave","street_2":"Truman Rd","geometry":[-79.3866350029291,43.7605860032119]},{"id":16482,"name":"Midland Ave And Mcnicoll Ave","district":"Scarborough","intersection_id":14038170,"street_1":"Midland Ave","street_2":"McNicoll Ave","geometry":[-79.2922180081124,43.8145780077135]},{"id":16483,"name":"Steeles Ave E And Birchmount Rd","district":"Scarborough","intersection_id":13441903,"street_1":"Steeles Ave E","street_2":"Birchmount Rd","geometry":[-79.3169249962472,43.8213920039946]},{"id":16484,"name":"Warden Ave And Arkona Dr / Cloverleaf Gt","district":"Scarborough","intersection_id":13446799,"street_1":"Warden Ave","street_2":"Arkona Dr","geometry":[-79.3053560099501,43.7730890055368]},{"id":16485,"name":"Steeles Ave E And Brimley Rd","district":"Scarborough","intersection_id":13441677,"street_1":"Steeles Ave E","street_2":"Brimley Rd","geometry":[-79.2872019971675,43.8282939976019]},{"id":16486,"name":"College St And Bathurst St","district":"Toronto and East York","intersection_id":13465757,"street_1":"College St","street_2":"Bathurst St","geometry":[-79.4077219983493,43.656481004806004]},{"id":16487,"name":"Morningside Ave And Lawrence Ave E","district":"Scarborough","intersection_id":13447211,"street_1":"Morningside Ave","street_2":"Lawrence Ave E","geometry":[-79.1862250063822,43.768408003812]},{"id":16488,"name":"Dixon Rd And Carlingview Dr","district":"Etobicoke York","intersection_id":13461025,"street_1":"Dixon Rd","street_2":"Carlingview Dr","geometry":[-79.5955659976761,43.6867570035774]},{"id":16489,"name":"Dufferin St And Glencairn Ave","district":"North York","intersection_id":13457150,"street_1":"Dufferin St","street_2":"Glencairn Ave","geometry":[-79.4531800071891,43.706982004009]},{"id":16490,"name":"Overlea Blvd And Thorncliffe Park Dr","district":"North York","intersection_id":13456854,"street_1":"Overlea Blvd","street_2":"Thorncliffe Park Dr","geometry":[-79.3436250025507,43.7074730060253]},{"id":16491,"name":"Kennedy Rd And Ellesmere Rd","district":"Scarborough","intersection_id":13447843,"street_1":"Kennedy Rd","street_2":"Ellesmere Rd","geometry":[-79.2810780069511,43.7658020019069]},{"id":16492,"name":"Leslie St And Finch Ave E","district":"North York","intersection_id":13444761,"street_1":"Leslie St","street_2":"Finch Ave E","geometry":[-79.3680670004262,43.7900119961954]},{"id":16493,"name":"Birchmount Rd And Huntingwood Dr","district":"Scarborough","intersection_id":13444601,"street_1":"Birchmount Rd","street_2":"Huntingwood Dr","geometry":[-79.3022949978243,43.79043999645231]},{"id":16494,"name":"Kingston Rd And Port Union Rd / Sheppard Ave E","district":"Scarborough","intersection_id":13443303,"street_1":"Kingston Rd","street_2":"Port Union Rd","geometry":[-79.1462229994315,43.7989240015282]},{"id":16495,"name":"Bloor St W And The West Mall","district":"Etobicoke York","intersection_id":13468898,"street_1":"Bloor St W","street_2":"The West Mall","geometry":[-79.5623179959463,43.6356249939783]},{"id":16496,"name":"The Queensway And The West Mall","district":"Etobicoke York","intersection_id":13470138,"street_1":"The Queensway","street_2":"The West Mall","geometry":[-79.56267699779691,43.6123069968059]},{"id":16497,"name":"Lake Shore Blvd W And Thirty Seventh St / Private Access","district":"Etobicoke York","intersection_id":13470661,"street_1":"Lake Shore Blvd W","street_2":"Thirty Seventh St","geometry":[-79.5381799940711,43.5933960003353]},{"id":16498,"name":"Kipling Ave And Horner Ave","district":"Etobicoke York","intersection_id":13470261,"street_1":"Kipling Ave","street_2":"Horner Ave","geometry":[-79.5207509976317,43.6072009967797]},{"id":16499,"name":"The Queensway And North Queen St / Private Access @ Sherway Gardens","district":"Etobicoke York","intersection_id":13470082,"street_1":"The Queensway","street_2":"North Queen St","geometry":[-79.5561539918499,43.6142170046664]},{"id":16500,"name":"Wilson Ave And Transit Rd / Billy Bishop Way","district":"North York","intersection_id":13453096,"street_1":"Wilson Ave","street_2":"Transit Rd","geometry":[-79.4528629934421,43.7333830014361]},{"id":16501,"name":"Lake Shore Blvd W And Windermere Ave / Private Access","district":"Toronto and East York","intersection_id":13468807,"street_1":"Lake Shore Blvd W","street_2":"Windermere Ave","geometry":[-79.46814699688,43.6351890029381]},{"id":16502,"name":"Warden Ave And Mcnicoll Ave","district":"Scarborough","intersection_id":13442867,"street_1":"Warden Ave","street_2":"McNicoll Ave","geometry":[-79.3209749936509,43.8063490021709]},{"id":16503,"name":"Keele St And Wilson Ave","district":"North York","intersection_id":13454197,"street_1":"Keele St","street_2":"Wilson Ave","geometry":[-79.4820690045095,43.7266419991172]},{"id":16504,"name":"Lansdowne Ave And Dupont St","district":"Toronto and East York","intersection_id":13464191,"street_1":"Lansdowne Ave","street_2":"Dupont St","geometry":[-79.44646099433211,43.66672500026281]},{"id":16505,"name":"Queen St W And Lansdowne Ave / Jameson Ave","district":"Toronto and East York","intersection_id":13468197,"street_1":"Queen St W","street_2":"Lansdowne Ave","geometry":[-79.4369899986827,43.6405599995531]},{"id":16506,"name":"Burnhamthorpe Rd And The East Mall","district":"Etobicoke York","intersection_id":13467689,"street_1":"Burnhamthorpe Rd","street_2":"The East Mall","geometry":[-79.5599919958505,43.646303004340304]},{"id":16507,"name":"Keele St And Sheppard Ave W","district":"North York","intersection_id":13451388,"street_1":"Keele St","street_2":"Sheppard Ave W","geometry":[-79.4864519947699,43.7447770044339]},{"id":16508,"name":"Jane St And Bala Ave / Emmett Ave","district":"Etobicoke York","intersection_id":13460183,"street_1":"Jane St","street_2":"Bala Ave","geometry":[-79.5006009970776,43.6901420045761]},{"id":16509,"name":"Jane St And Clair Rd / Spenvalley Dr","district":"Etobicoke York","intersection_id":13451997,"street_1":"Jane St","street_2":"Clair Rd","geometry":[-79.5136850048347,43.74124000574]},{"id":16510,"name":"O Connor Dr And Bermondsey Rd / Yardley Ave","district":"Toronto and East York","intersection_id":null,"street_1":null,"street_2":null,"geometry":[-79.3074270054452,43.7124530074629]},{"id":16511,"name":"Danforth Ave And Birchmount Rd","district":"Scarborough","intersection_id":13458312,"street_1":"Danforth Ave","street_2":"Birchmount Rd","geometry":[-79.2639990061325,43.6969930097833]},{"id":16512,"name":"Islington Ave And The Westway","district":"Etobicoke York","intersection_id":13460559,"street_1":"Islington Ave","street_2":"The Westway","geometry":[-79.5428729970172,43.6886200015324]},{"id":16513,"name":"Bathurst St And Davenport Rd","district":"Toronto and East York","intersection_id":13462422,"street_1":"Bathurst St","street_2":"Davenport Rd","geometry":[-79.415786001934,43.6767300085459]},{"id":16514,"name":"Warden Ave And Comstock Rd","district":"Scarborough","intersection_id":13454488,"street_1":"Warden Ave","street_2":"Comstock Rd","geometry":[-79.2849930048744,43.7215320000156]},{"id":16515,"name":"Eastern Ave And Coxwell Ave","district":"Toronto and East York","intersection_id":null,"street_1":null,"street_2":null,"geometry":[-79.3162150008697,43.6654930038606]},{"id":16516,"name":"Midland Ave And Progress Ave","district":"Scarborough","intersection_id":13446743,"street_1":"Midland Ave","street_2":"Progress Ave","geometry":[-79.2729859942398,43.7729650001435]},{"id":16517,"name":"Lawrence Ave E And Bellamy Rd N","district":"Scarborough","intersection_id":13448868,"street_1":"Lawrence Ave E","street_2":"Bellamy Rd N","geometry":[-79.2352669931062,43.757721009063]},{"id":16518,"name":"Danforth Rd And Birchmount Rd","district":"Scarborough","intersection_id":13456762,"street_1":"Danforth Rd","street_2":"Birchmount Rd","geometry":[-79.2681300060353,43.7069980024562]},{"id":16519,"name":"St Clair Ave E And Brimley Rd","district":"Scarborough","intersection_id":13454486,"street_1":"St Clair Ave E","street_2":"Brimley Rd","geometry":[-79.241447998072,43.72087500561581]},{"id":16520,"name":"Keele St And Lawrence Ave W","district":"Etobicoke York","intersection_id":13456952,"street_1":"Keele St","street_2":"Lawrence Ave W","geometry":[-79.4780619980855,43.70865900724171]},{"id":16521,"name":"Bloor St W And Ossington Ave","district":"Toronto and East York","intersection_id":13464908,"street_1":"Bloor St W","street_2":"Ossington Ave","geometry":[-79.4256589977268,43.6619839983533]},{"id":16522,"name":"Danforth Ave And Greenwood Ave","district":"Toronto and East York","intersection_id":13461356,"street_1":"Danforth Ave","street_2":"Greenwood Ave","geometry":[-79.3323819969191,43.6814840035033]},{"id":16523,"name":"Queen St E And Woodbine Ave","district":"Toronto and East York","intersection_id":13463494,"street_1":"Queen St E","street_2":"Woodbine Ave","geometry":[-79.3057750019252,43.6687570069778]},{"id":16524,"name":"King St E And Jarvis St","district":"Toronto and East York","intersection_id":13466630,"street_1":"King St E","street_2":"Jarvis St","geometry":[-79.3719129962965,43.6504630011365]},{"id":16525,"name":"Lake Shore Blvd E And Leslie St","district":"Toronto and East York","intersection_id":13465164,"street_1":"Lake Shore Blvd E","street_2":"Leslie St","geometry":[-79.3284359942956,43.6592350040891]},{"id":16526,"name":"Lower Jarvis St And The Esplanade","district":"Toronto and East York","intersection_id":13467011,"street_1":"Lower Jarvis St","street_2":"The Esplanade","geometry":[-79.3709320014031,43.6482249963251]},{"id":16527,"name":"Lake Shore Blvd E And Carlaw Ave","district":"Toronto and East York","intersection_id":13465837,"street_1":"Lake Shore Blvd E","street_2":"Carlaw Ave","geometry":[-79.3374340022338,43.6549600017234]},{"id":16528,"name":"Rogers Rd And Keele St","district":"Etobicoke York","intersection_id":13461587,"street_1":"Rogers Rd","street_2":"Keele St","geometry":[-79.47159799794892,43.6821360027129]},{"id":16529,"name":"Dundas St W And Bloor St W","district":"Toronto and East York","intersection_id":13465876,"street_1":"Dundas St W","street_2":"Bloor St W","geometry":[-79.4524529944122,43.6563210073069]},{"id":16530,"name":"Yonge St And Lawrence Ave","district":"North York","intersection_id":null,"street_1":null,"street_2":null,"geometry":[-79.4021950065855,43.7251010003172]},{"id":16531,"name":"Eglinton Ave W And Spadina Rd","district":"North York","intersection_id":13457863,"street_1":"Eglinton Ave W","street_2":"Spadina Rd","geometry":[-79.4191080086644,43.7023509956489]},{"id":16532,"name":"Lawrence Ave E And Don Mills Rd","district":"North York","intersection_id":13452266,"street_1":"Lawrence Ave E","street_2":"Don Mills Rd","geometry":[-79.3434479955005,43.7371730050547]},{"id":16533,"name":"Neilson Rd And Sheppard Ave E","district":"Scarborough","intersection_id":13443509,"street_1":"Neilson Rd","street_2":"Sheppard Ave E","geometry":[-79.2176650080531,43.7981220089414]},{"id":16534,"name":"Sheppard Ave E And Malvern St / Progress Ave","district":"Scarborough","intersection_id":13443955,"street_1":"Sheppard Ave E","street_2":"Malvern St","geometry":[-79.2349310078247,43.7946620094042]},{"id":16535,"name":"Ellesmere Rd And Military Trl","district":"Scarborough","intersection_id":13445757,"street_1":"Ellesmere Rd","street_2":"Military Trl","geometry":[-79.1883100064072,43.7865780023884]},{"id":16536,"name":"Kennedy Rd And 401 C E Kennedy Rd Ramp / William Kitchen Rd","district":"Scarborough","intersection_id":14228400,"street_1":"Kennedy Rd","street_2":"401 C E Kennedy Rd Ramp","geometry":[-79.2838680047475,43.7731870021528]},{"id":16537,"name":"University Ave And Richmond St W","district":"Toronto and East York","intersection_id":13466730,"street_1":"University Ave","street_2":"Richmond St W","geometry":[-79.3862910070768,43.6500869989537]},{"id":16538,"name":"Adelaide St E And Parliament St","district":"Toronto and East York","intersection_id":13466117,"street_1":"Adelaide St E","street_2":"Parliament St","geometry":[-79.3635979983947,43.6535639991237]},{"id":16539,"name":"University Ave And Adelaide St W","district":"Toronto and East York","intersection_id":13466931,"street_1":"University Ave","street_2":"Adelaide St W","geometry":[-79.3855560013834,43.6488690023181]},{"id":16540,"name":"Dixon Rd And Martin Grove Rd","district":"Etobicoke York","intersection_id":13460075,"street_1":"Dixon Rd","street_2":"Martin Grove Rd","geometry":[-79.5708379982085,43.6915920028019]},{"id":16541,"name":"University Ave And Queen St W","district":"Toronto and East York","intersection_id":13466604,"street_1":"University Ave","street_2":"Queen St W","geometry":[-79.3866280046579,43.6508519992253]},{"id":16542,"name":"Keele St And Wilson Ave","district":"North York","intersection_id":13454197,"street_1":"Keele St","street_2":"Wilson Ave","geometry":[-79.4820690045095,43.7266419991172]},{"id":16543,"name":"Lake Shore Blvd W And Spadina Ave / Lower Spadina Ave","district":"Toronto and East York","intersection_id":13468307,"street_1":"Lake Shore Blvd W","street_2":"Spadina Ave","geometry":[-79.3922259986906,43.6384530045981]},{"id":16544,"name":"Lake Shore Blvd W And Park Lawn Rd / Marine Parade Dr","district":"Etobicoke York","intersection_id":13469683,"street_1":"Lake Shore Blvd W","street_2":"Park Lawn Rd","geometry":[-79.4812110096601,43.6229680112056]},{"id":16545,"name":"Sheppard Ave E And Bayview Ave","district":"North York","intersection_id":13447964,"street_1":"Sheppard Ave E","street_2":"Bayview Ave","geometry":[-79.38805600118,43.7665890046042]},{"id":16546,"name":"Steeles Ave W And Weston Rd","district":"Etobicoke York","intersection_id":13447719,"street_1":"Steeles Ave W","street_2":"Weston Rd","geometry":[-79.5465260053289,43.7702810010402]},{"id":16547,"name":"Lawrence Ave E And Greencedar Crct / Greenbrae Crct","district":"Scarborough","intersection_id":13448786,"street_1":"Lawrence Ave E","street_2":"Greencedar Crct","geometry":[-79.2330769989999,43.7581840043566]},{"id":16548,"name":"Finch Ave E And Birchmount Rd","district":"Scarborough","intersection_id":13443562,"street_1":"Finch Ave E","street_2":"Birchmount Rd","geometry":[-79.3059809951566,43.7989979995184]},{"id":16549,"name":"Bloor St W And The East Mall","district":"Etobicoke York","intersection_id":13468751,"street_1":"Bloor St W","street_2":"The East Mall","geometry":[-79.5567089997178,43.6369290009577]},{"id":16550,"name":"Wilson Ave And Jane St","district":"Etobicoke York","intersection_id":13455040,"street_1":"Wilson Ave","street_2":"Jane St","geometry":[-79.5086339938217,43.7209150020263]},{"id":16551,"name":"Warden Ave And Mcnicoll Ave","district":"Scarborough","intersection_id":13442867,"street_1":"Warden Ave","street_2":"McNicoll Ave","geometry":[-79.3209749936509,43.8063490021709]},{"id":16552,"name":"Steeles Ave W And Keele St","district":"Etobicoke York","intersection_id":13446042,"street_1":"Steeles Ave W","street_2":"Keele St","geometry":[-79.49450599924522,43.7815790029302]},{"id":16553,"name":"University Ave And Wellington St W","district":"Toronto and East York","intersection_id":13467345,"street_1":"University Ave","street_2":"Wellington St W","geometry":[-79.3840989922877,43.64638300468851]},{"id":16554,"name":"Albion Rd And Kipling Ave","district":"Etobicoke York","intersection_id":13452362,"street_1":"Albion Rd","street_2":"Kipling Ave","geometry":[-79.5804020028511,43.7397240059444]},{"id":16555,"name":"The Queensway And Kipling Ave","district":"Etobicoke York","intersection_id":13469800,"street_1":"The Queensway","street_2":"Kipling Ave","geometry":[-79.5267410052857,43.6209179956827]},{"id":16556,"name":"Finch Ave E And Gordon Baker Rd / Finch E 404 N Ramp","district":"North York","intersection_id":13444088,"street_1":"Finch Ave E","street_2":"Gordon Baker Rd","geometry":[-79.3412610045643,43.7951470000125]},{"id":16557,"name":"Jarvis St And Isabella St","district":"Toronto and East York","intersection_id":13463674,"street_1":"Jarvis St","street_2":"Isabella St","geometry":[-79.3794520049809,43.6688930027192]},{"id":16558,"name":"Danforth Rd And Brimley Rd","district":"Scarborough","intersection_id":13452352,"street_1":"Danforth Rd","street_2":"Brimley Rd","geometry":[-79.2473840010046,43.7351730038106]},{"id":16559,"name":"Dundas St E And River St","district":"Toronto and East York","intersection_id":13464879,"street_1":"Dundas St E","street_2":"River St","geometry":[-79.3581619936977,43.6611979985476]},{"id":16560,"name":"Mccowan Rd And Mcnicoll Ave","district":"Scarborough","intersection_id":13442036,"street_1":"McCowan Rd","street_2":"McNicoll Ave","geometry":[-79.2719800057721,43.8179410082595]},{"id":16561,"name":"St Clair Ave W And Gunns Rd / Old Stock Yards Rd @ Home Depot Entrance","district":"Etobicoke York","intersection_id":13463362,"street_1":"St Clair Ave W","street_2":"Gunns Rd","geometry":[-79.4711240063789,43.6717810093395]},{"id":16562,"name":"Spadina Ave And King St W","district":"Toronto and East York","intersection_id":13467505,"street_1":"Spadina Ave","street_2":"King St W","geometry":[-79.3950459963437,43.6454700030013]},{"id":16563,"name":"Sheppard Ave E And Mccowan Rd","district":"Scarborough","intersection_id":13444619,"street_1":"Sheppard Ave E","street_2":"McCowan Rd","geometry":[-79.2588380089157,43.7896200075726]},{"id":16564,"name":"King St E And Parliament St","district":"Toronto and East York","intersection_id":13466241,"street_1":"King St E","street_2":"Parliament St","geometry":[-79.3632450108231,43.6527289986933]},{"id":16565,"name":"Rexdale Blvd And Martin Grove Rd","district":"Etobicoke York","intersection_id":13456327,"street_1":"Rexdale Blvd","street_2":"Martin Grove Rd","geometry":[-79.581117010177,43.7138439993169]}]